{"Europe/Andorra":{"countryCodes":["AD"],"coordinates":{"lattitude":42.5,"longitude":1.5166666666666666},"name":"Europe/Andorra"},"Asia/Dubai":{"countryCodes":["AE","OM"],"coordinates":{"lattitude":25.3,"longitude":55.3},"name":"Asia/Dubai"},"Asia/Kabul":{"countryCodes":["AF"],"coordinates":{"lattitude":34.516666666666666,"longitude":69.2},"name":"Asia/Kabul"},"Europe/Tirane":{"countryCodes":["AL"],"coordinates":{"lattitude":41.333333333333336,"longitude":19.833333333333332},"name":"Europe/Tirane"},"Asia/Yerevan":{"countryCodes":["AM"],"coordinates":{"lattitude":40.18333333333333,"longitude":44.5},"name":"Asia/Yerevan"},"Antarctica/Casey":{"countryCodes":["AQ"],"coordinates":{"lattitude":-66.28333333333333,"longitude":110.51666666666667},"name":"Antarctica/Casey","comments":"Casey"},"Antarctica/Davis":{"countryCodes":["AQ"],"coordinates":{"lattitude":-68.58333333333333,"longitude":77.96666666666667},"name":"Antarctica/Davis","comments":"Davis"},"Antarctica/DumontDUrville":{"countryCodes":["AQ"],"coordinates":{"lattitude":-66.66666666666667,"longitude":140.01666666666668},"name":"Antarctica/DumontDUrville","comments":"Dumont-d'Urville"},"Antarctica/Mawson":{"countryCodes":["AQ"],"coordinates":{"lattitude":-67.6,"longitude":62.88333333333333},"name":"Antarctica/Mawson","comments":"Mawson"},"Antarctica/Palmer":{"countryCodes":["AQ"],"coordinates":{"lattitude":-64.8,"longitude":-64.1},"name":"Antarctica/Palmer","comments":"Palmer"},"Antarctica/Rothera":{"countryCodes":["AQ"],"coordinates":{"lattitude":-67.56666666666666,"longitude":-68.13333333333334},"name":"Antarctica/Rothera","comments":"Rothera"},"Antarctica/Syowa":{"countryCodes":["AQ"],"coordinates":{"lattitude":-69.36666666666666,"longitude":39.983333333333334},"name":"Antarctica/Syowa","comments":"Syowa"},"Antarctica/Troll":{"countryCodes":["AQ"],"coordinates":{"lattitude":-72.68333333333334,"longitude":2.6333333333333333},"name":"Antarctica/Troll","comments":"Troll"},"Antarctica/Vostok":{"countryCodes":["AQ"],"coordinates":{"lattitude":-78.4,"longitude":106.9},"name":"Antarctica/Vostok","comments":"Vostok"},"America/Argentina/Buenos_Aires":{"countryCodes":["AR"],"coordinates":{"lattitude":-34.6,"longitude":-58.45},"name":"America/Argentina/Buenos_Aires","comments":"Buenos Aires (BA, CF)"},"America/Argentina/Cordoba":{"countryCodes":["AR"],"coordinates":{"lattitude":-31.4,"longitude":-64.18333333333334},"name":"America/Argentina/Cordoba","comments":"Argentina (most areas: CB, CC, CN, ER, FM, MN, SE, SF)"},"America/Argentina/Salta":{"countryCodes":["AR"],"coordinates":{"lattitude":-24.783333333333335,"longitude":-65.41666666666667},"name":"America/Argentina/Salta","comments":"Salta (SA, LP, NQ, RN)"},"America/Argentina/Jujuy":{"countryCodes":["AR"],"coordinates":{"lattitude":-24.183333333333334,"longitude":-65.3},"name":"America/Argentina/Jujuy","comments":"Jujuy (JY)"},"America/Argentina/Tucuman":{"countryCodes":["AR"],"coordinates":{"lattitude":-26.816666666666666,"longitude":-65.21666666666667},"name":"America/Argentina/Tucuman","comments":"Tucumán (TM)"},"America/Argentina/Catamarca":{"countryCodes":["AR"],"coordinates":{"lattitude":-28.466666666666665,"longitude":-65.78333333333333},"name":"America/Argentina/Catamarca","comments":"Catamarca (CT); Chubut (CH)"},"America/Argentina/La_Rioja":{"countryCodes":["AR"],"coordinates":{"lattitude":-29.433333333333334,"longitude":-66.85},"name":"America/Argentina/La_Rioja","comments":"La Rioja (LR)"},"America/Argentina/San_Juan":{"countryCodes":["AR"],"coordinates":{"lattitude":-31.533333333333335,"longitude":-68.51666666666667},"name":"America/Argentina/San_Juan","comments":"San Juan (SJ)"},"America/Argentina/Mendoza":{"countryCodes":["AR"],"coordinates":{"lattitude":-32.88333333333333,"longitude":-68.81666666666666},"name":"America/Argentina/Mendoza","comments":"Mendoza (MZ)"},"America/Argentina/San_Luis":{"countryCodes":["AR"],"coordinates":{"lattitude":-33.31666666666667,"longitude":-66.35},"name":"America/Argentina/San_Luis","comments":"San Luis (SL)"},"America/Argentina/Rio_Gallegos":{"countryCodes":["AR"],"coordinates":{"lattitude":-51.63333333333333,"longitude":-69.21666666666667},"name":"America/Argentina/Rio_Gallegos","comments":"Santa Cruz (SC)"},"America/Argentina/Ushuaia":{"countryCodes":["AR"],"coordinates":{"lattitude":-54.8,"longitude":-68.3},"name":"America/Argentina/Ushuaia","comments":"Tierra del Fuego (TF)"},"Pacific/Pago_Pago":{"countryCodes":["AS","UM"],"coordinates":{"lattitude":-14.266666666666667,"longitude":-170.7},"name":"Pacific/Pago_Pago","comments":"Samoa, Midway"},"Europe/Vienna":{"countryCodes":["AT"],"coordinates":{"lattitude":48.21666666666667,"longitude":16.333333333333332},"name":"Europe/Vienna"},"Australia/Lord_Howe":{"countryCodes":["AU"],"coordinates":{"lattitude":-31.55,"longitude":159.08333333333334},"name":"Australia/Lord_Howe","comments":"Lord Howe Island"},"Antarctica/Macquarie":{"countryCodes":["AU"],"coordinates":{"lattitude":-54.5,"longitude":158.95},"name":"Antarctica/Macquarie","comments":"Macquarie Island"},"Australia/Hobart":{"countryCodes":["AU"],"coordinates":{"lattitude":-42.88333333333333,"longitude":147.31666666666666},"name":"Australia/Hobart","comments":"Tasmania (most areas)"},"Australia/Currie":{"countryCodes":["AU"],"coordinates":{"lattitude":-39.93333333333333,"longitude":143.86666666666667},"name":"Australia/Currie","comments":"Tasmania (King Island)"},"Australia/Melbourne":{"countryCodes":["AU"],"coordinates":{"lattitude":-37.81666666666667,"longitude":144.96666666666667},"name":"Australia/Melbourne","comments":"Victoria"},"Australia/Sydney":{"countryCodes":["AU"],"coordinates":{"lattitude":-33.86666666666667,"longitude":151.21666666666667},"name":"Australia/Sydney","comments":"New South Wales (most areas)"},"Australia/Broken_Hill":{"countryCodes":["AU"],"coordinates":{"lattitude":-31.95,"longitude":141.45},"name":"Australia/Broken_Hill","comments":"New South Wales (Yancowinna)"},"Australia/Brisbane":{"countryCodes":["AU"],"coordinates":{"lattitude":-27.466666666666665,"longitude":153.03333333333333},"name":"Australia/Brisbane","comments":"Queensland (most areas)"},"Australia/Lindeman":{"countryCodes":["AU"],"coordinates":{"lattitude":-20.266666666666666,"longitude":149},"name":"Australia/Lindeman","comments":"Queensland (Whitsunday Islands)"},"Australia/Adelaide":{"countryCodes":["AU"],"coordinates":{"lattitude":-34.916666666666664,"longitude":138.58333333333334},"name":"Australia/Adelaide","comments":"South Australia"},"Australia/Darwin":{"countryCodes":["AU"],"coordinates":{"lattitude":-12.466666666666667,"longitude":130.83333333333334},"name":"Australia/Darwin","comments":"Northern Territory"},"Australia/Perth":{"countryCodes":["AU"],"coordinates":{"lattitude":-31.95,"longitude":115.85},"name":"Australia/Perth","comments":"Western Australia (most areas)"},"Australia/Eucla":{"countryCodes":["AU"],"coordinates":{"lattitude":-31.716666666666665,"longitude":128.86666666666667},"name":"Australia/Eucla","comments":"Western Australia (Eucla)"},"Asia/Baku":{"countryCodes":["AZ"],"coordinates":{"lattitude":40.38333333333333,"longitude":49.85},"name":"Asia/Baku"},"America/Barbados":{"countryCodes":["BB"],"coordinates":{"lattitude":13.1,"longitude":-59.61666666666667},"name":"America/Barbados"},"Asia/Dhaka":{"countryCodes":["BD"],"coordinates":{"lattitude":23.716666666666665,"longitude":90.41666666666667},"name":"Asia/Dhaka"},"Europe/Brussels":{"countryCodes":["BE"],"coordinates":{"lattitude":50.833333333333336,"longitude":4.333333333333333},"name":"Europe/Brussels"},"Europe/Sofia":{"countryCodes":["BG"],"coordinates":{"lattitude":42.68333333333333,"longitude":23.316666666666666},"name":"Europe/Sofia"},"Atlantic/Bermuda":{"countryCodes":["BM"],"coordinates":{"lattitude":32.28333333333333,"longitude":-64.76666666666667},"name":"Atlantic/Bermuda"},"Asia/Brunei":{"countryCodes":["BN"],"coordinates":{"lattitude":4.933333333333334,"longitude":114.91666666666667},"name":"Asia/Brunei"},"America/La_Paz":{"countryCodes":["BO"],"coordinates":{"lattitude":-16.5,"longitude":-68.15},"name":"America/La_Paz"},"America/Noronha":{"countryCodes":["BR"],"coordinates":{"lattitude":-3.85,"longitude":-32.416666666666664},"name":"America/Noronha","comments":"Atlantic islands"},"America/Belem":{"countryCodes":["BR"],"coordinates":{"lattitude":-1.45,"longitude":-48.483333333333334},"name":"America/Belem","comments":"Pará (east); Amapá"},"America/Fortaleza":{"countryCodes":["BR"],"coordinates":{"lattitude":-3.716666666666667,"longitude":-38.5},"name":"America/Fortaleza","comments":"Brazil (northeast: MA, PI, CE, RN, PB)"},"America/Recife":{"countryCodes":["BR"],"coordinates":{"lattitude":-8.05,"longitude":-34.9},"name":"America/Recife","comments":"Pernambuco"},"America/Araguaina":{"countryCodes":["BR"],"coordinates":{"lattitude":-7.2,"longitude":-48.2},"name":"America/Araguaina","comments":"Tocantins"},"America/Maceio":{"countryCodes":["BR"],"coordinates":{"lattitude":-9.666666666666666,"longitude":-35.71666666666667},"name":"America/Maceio","comments":"Alagoas, Sergipe"},"America/Bahia":{"countryCodes":["BR"],"coordinates":{"lattitude":-12.983333333333333,"longitude":-38.516666666666666},"name":"America/Bahia","comments":"Bahia"},"America/Sao_Paulo":{"countryCodes":["BR"],"coordinates":{"lattitude":-23.533333333333335,"longitude":-46.61666666666667},"name":"America/Sao_Paulo","comments":"Brazil (southeast: GO, DF, MG, ES, RJ, SP, PR, SC, RS)"},"America/Campo_Grande":{"countryCodes":["BR"],"coordinates":{"lattitude":-20.45,"longitude":-54.61666666666667},"name":"America/Campo_Grande","comments":"Mato Grosso do Sul"},"America/Cuiaba":{"countryCodes":["BR"],"coordinates":{"lattitude":-15.583333333333334,"longitude":-56.083333333333336},"name":"America/Cuiaba","comments":"Mato Grosso"},"America/Santarem":{"countryCodes":["BR"],"coordinates":{"lattitude":-2.4333333333333336,"longitude":-54.86666666666667},"name":"America/Santarem","comments":"Pará (west)"},"America/Porto_Velho":{"countryCodes":["BR"],"coordinates":{"lattitude":-8.766666666666667,"longitude":-63.9},"name":"America/Porto_Velho","comments":"Rondônia"},"America/Boa_Vista":{"countryCodes":["BR"],"coordinates":{"lattitude":2.8166666666666664,"longitude":-60.666666666666664},"name":"America/Boa_Vista","comments":"Roraima"},"America/Manaus":{"countryCodes":["BR"],"coordinates":{"lattitude":-3.1333333333333333,"longitude":-60.016666666666666},"name":"America/Manaus","comments":"Amazonas (east)"},"America/Eirunepe":{"countryCodes":["BR"],"coordinates":{"lattitude":-6.666666666666667,"longitude":-69.86666666666666},"name":"America/Eirunepe","comments":"Amazonas (west)"},"America/Rio_Branco":{"countryCodes":["BR"],"coordinates":{"lattitude":-9.966666666666667,"longitude":-67.8},"name":"America/Rio_Branco","comments":"Acre"},"America/Nassau":{"countryCodes":["BS"],"coordinates":{"lattitude":25.083333333333332,"longitude":-77.35},"name":"America/Nassau"},"Asia/Thimphu":{"countryCodes":["BT"],"coordinates":{"lattitude":27.466666666666665,"longitude":89.65},"name":"Asia/Thimphu"},"Europe/Minsk":{"countryCodes":["BY"],"coordinates":{"lattitude":53.9,"longitude":27.566666666666666},"name":"Europe/Minsk"},"America/Belize":{"countryCodes":["BZ"],"coordinates":{"lattitude":17.5,"longitude":-88.2},"name":"America/Belize"},"America/St_Johns":{"countryCodes":["CA"],"coordinates":{"lattitude":47.56666666666667,"longitude":-52.71666666666667},"name":"America/St_Johns","comments":"Newfoundland; Labrador (southeast)"},"America/Halifax":{"countryCodes":["CA"],"coordinates":{"lattitude":44.65,"longitude":-63.6},"name":"America/Halifax","comments":"Atlantic - NS (most areas); PE"},"America/Glace_Bay":{"countryCodes":["CA"],"coordinates":{"lattitude":46.2,"longitude":-59.95},"name":"America/Glace_Bay","comments":"Atlantic - NS (Cape Breton)"},"America/Moncton":{"countryCodes":["CA"],"coordinates":{"lattitude":46.1,"longitude":-64.78333333333333},"name":"America/Moncton","comments":"Atlantic - New Brunswick"},"America/Goose_Bay":{"countryCodes":["CA"],"coordinates":{"lattitude":53.333333333333336,"longitude":-60.416666666666664},"name":"America/Goose_Bay","comments":"Atlantic - Labrador (most areas)"},"America/Blanc-Sablon":{"countryCodes":["CA"],"coordinates":{"lattitude":51.416666666666664,"longitude":-57.11666666666667},"name":"America/Blanc-Sablon","comments":"AST - QC (Lower North Shore)"},"America/Toronto":{"countryCodes":["CA"],"coordinates":{"lattitude":43.65,"longitude":-79.38333333333334},"name":"America/Toronto","comments":"Eastern - ON, QC (most areas)"},"America/Nipigon":{"countryCodes":["CA"],"coordinates":{"lattitude":49.016666666666666,"longitude":-88.26666666666667},"name":"America/Nipigon","comments":"Eastern - ON, QC (no DST 1967-73)"},"America/Thunder_Bay":{"countryCodes":["CA"],"coordinates":{"lattitude":48.38333333333333,"longitude":-89.25},"name":"America/Thunder_Bay","comments":"Eastern - ON (Thunder Bay)"},"America/Iqaluit":{"countryCodes":["CA"],"coordinates":{"lattitude":63.733333333333334,"longitude":-68.46666666666667},"name":"America/Iqaluit","comments":"Eastern - NU (most east areas)"},"America/Pangnirtung":{"countryCodes":["CA"],"coordinates":{"lattitude":66.13333333333334,"longitude":-65.73333333333333},"name":"America/Pangnirtung","comments":"Eastern - NU (Pangnirtung)"},"America/Atikokan":{"countryCodes":["CA"],"coordinates":{"lattitude":49.266666666666666,"longitude":-91.91666666666666},"name":"America/Atikokan","comments":"EST - ON (Atikokan); NU (Coral H)"},"America/Winnipeg":{"countryCodes":["CA"],"coordinates":{"lattitude":49.88333333333333,"longitude":-97.15},"name":"America/Winnipeg","comments":"Central - ON (west); Manitoba"},"America/Rainy_River":{"countryCodes":["CA"],"coordinates":{"lattitude":48.71666666666667,"longitude":-94.56666666666666},"name":"America/Rainy_River","comments":"Central - ON (Rainy R, Ft Frances)"},"America/Resolute":{"countryCodes":["CA"],"coordinates":{"lattitude":75.41666666666667,"longitude":-95.56666666666666},"name":"America/Resolute","comments":"Central - NU (Resolute)"},"America/Rankin_Inlet":{"countryCodes":["CA"],"coordinates":{"lattitude":62.81666666666667,"longitude":-93.05},"name":"America/Rankin_Inlet","comments":"Central - NU (central)"},"America/Regina":{"countryCodes":["CA"],"coordinates":{"lattitude":50.4,"longitude":-104.65},"name":"America/Regina","comments":"CST - SK (most areas)"},"America/Swift_Current":{"countryCodes":["CA"],"coordinates":{"lattitude":50.28333333333333,"longitude":-107.83333333333333},"name":"America/Swift_Current","comments":"CST - SK (midwest)"},"America/Edmonton":{"countryCodes":["CA"],"coordinates":{"lattitude":53.55,"longitude":-113.46666666666667},"name":"America/Edmonton","comments":"Mountain - AB; BC (E); SK (W)"},"America/Cambridge_Bay":{"countryCodes":["CA"],"coordinates":{"lattitude":69.93333333333332,"longitude":-105.21666666666667},"name":"America/Cambridge_Bay","comments":"Mountain - NU (west)"},"America/Yellowknife":{"countryCodes":["CA"],"coordinates":{"lattitude":62.45,"longitude":-114.35},"name":"America/Yellowknife","comments":"Mountain - NT (central)"},"America/Inuvik":{"countryCodes":["CA"],"coordinates":{"lattitude":69.31666666666666,"longitude":-133.71666666666667},"name":"America/Inuvik","comments":"Mountain - NT (west)"},"America/Creston":{"countryCodes":["CA"],"coordinates":{"lattitude":49.1,"longitude":-116.51666666666667},"name":"America/Creston","comments":"MST - BC (Creston)"},"America/Dawson_Creek":{"countryCodes":["CA"],"coordinates":{"lattitude":59.766666666666666,"longitude":-120.23333333333333},"name":"America/Dawson_Creek","comments":"MST - BC (Dawson Cr, Ft St John)"},"America/Fort_Nelson":{"countryCodes":["CA"],"coordinates":{"lattitude":58.8,"longitude":-122.7},"name":"America/Fort_Nelson","comments":"MST - BC (Ft Nelson)"},"America/Vancouver":{"countryCodes":["CA"],"coordinates":{"lattitude":49.266666666666666,"longitude":-123.11666666666666},"name":"America/Vancouver","comments":"Pacific - BC (most areas)"},"America/Whitehorse":{"countryCodes":["CA"],"coordinates":{"lattitude":60.71666666666667,"longitude":-135.05},"name":"America/Whitehorse","comments":"Pacific - Yukon (east)"},"America/Dawson":{"countryCodes":["CA"],"coordinates":{"lattitude":64.06666666666666,"longitude":-139.41666666666666},"name":"America/Dawson","comments":"Pacific - Yukon (west)"},"Indian/Cocos":{"countryCodes":["CC"],"coordinates":{"lattitude":-12.166666666666666,"longitude":96.91666666666667},"name":"Indian/Cocos"},"Europe/Zurich":{"countryCodes":["CH","DE","LI"],"coordinates":{"lattitude":47.38333333333333,"longitude":8.533333333333333},"name":"Europe/Zurich","comments":"Swiss time"},"Africa/Abidjan":{"countryCodes":["CI","BF","GM","GN","ML","MR","SH","SL","SN","TG"],"coordinates":{"lattitude":5.316666666666666,"longitude":-4.033333333333333},"name":"Africa/Abidjan"},"Pacific/Rarotonga":{"countryCodes":["CK"],"coordinates":{"lattitude":-21.233333333333334,"longitude":-159.76666666666668},"name":"Pacific/Rarotonga"},"America/Santiago":{"countryCodes":["CL"],"coordinates":{"lattitude":-33.45,"longitude":-70.66666666666667},"name":"America/Santiago","comments":"Chile (most areas)"},"America/Punta_Arenas":{"countryCodes":["CL"],"coordinates":{"lattitude":-53.15,"longitude":-70.91666666666667},"name":"America/Punta_Arenas","comments":"Region of Magallanes"},"Pacific/Easter":{"countryCodes":["CL"],"coordinates":{"lattitude":-27.15,"longitude":-109.43333333333334},"name":"Pacific/Easter","comments":"Easter Island"},"Asia/Shanghai":{"countryCodes":["CN"],"coordinates":{"lattitude":31.233333333333334,"longitude":121.46666666666667},"name":"Asia/Shanghai","comments":"Beijing Time"},"Asia/Urumqi":{"countryCodes":["CN"],"coordinates":{"lattitude":43.8,"longitude":87.58333333333333},"name":"Asia/Urumqi","comments":"Xinjiang Time"},"America/Bogota":{"countryCodes":["CO"],"coordinates":{"lattitude":4.6,"longitude":-74.08333333333333},"name":"America/Bogota"},"America/Costa_Rica":{"countryCodes":["CR"],"coordinates":{"lattitude":9.933333333333334,"longitude":-84.08333333333333},"name":"America/Costa_Rica"},"America/Havana":{"countryCodes":["CU"],"coordinates":{"lattitude":23.133333333333333,"longitude":-82.36666666666666},"name":"America/Havana"},"Atlantic/Cape_Verde":{"countryCodes":["CV"],"coordinates":{"lattitude":14.916666666666666,"longitude":-23.516666666666666},"name":"Atlantic/Cape_Verde"},"America/Curacao":{"countryCodes":["CW","AW","BQ","SX"],"coordinates":{"lattitude":12.183333333333334,"longitude":-69},"name":"America/Curacao"},"Indian/Christmas":{"countryCodes":["CX"],"coordinates":{"lattitude":-10.416666666666666,"longitude":105.71666666666667},"name":"Indian/Christmas"},"Asia/Nicosia":{"countryCodes":["CY"],"coordinates":{"lattitude":35.166666666666664,"longitude":33.36666666666667},"name":"Asia/Nicosia","comments":"Cyprus (most areas)"},"Asia/Famagusta":{"countryCodes":["CY"],"coordinates":{"lattitude":35.11666666666667,"longitude":33.95},"name":"Asia/Famagusta","comments":"Northern Cyprus"},"Europe/Prague":{"countryCodes":["CZ","SK"],"coordinates":{"lattitude":50.083333333333336,"longitude":14.433333333333334},"name":"Europe/Prague"},"Europe/Berlin":{"countryCodes":["DE"],"coordinates":{"lattitude":52.5,"longitude":13.366666666666667},"name":"Europe/Berlin","comments":"Germany (most areas)"},"Europe/Copenhagen":{"countryCodes":["DK"],"coordinates":{"lattitude":55.666666666666664,"longitude":12.583333333333334},"name":"Europe/Copenhagen"},"America/Santo_Domingo":{"countryCodes":["DO"],"coordinates":{"lattitude":18.466666666666665,"longitude":-69.9},"name":"America/Santo_Domingo"},"Africa/Algiers":{"countryCodes":["DZ"],"coordinates":{"lattitude":36.78333333333333,"longitude":3.05},"name":"Africa/Algiers"},"America/Guayaquil":{"countryCodes":["EC"],"coordinates":{"lattitude":-2.1666666666666665,"longitude":-79.83333333333333},"name":"America/Guayaquil","comments":"Ecuador (mainland)"},"Pacific/Galapagos":{"countryCodes":["EC"],"coordinates":{"lattitude":-0.9,"longitude":-89.6},"name":"Pacific/Galapagos","comments":"Galápagos Islands"},"Europe/Tallinn":{"countryCodes":["EE"],"coordinates":{"lattitude":59.416666666666664,"longitude":24.75},"name":"Europe/Tallinn"},"Africa/Cairo":{"countryCodes":["EG"],"coordinates":{"lattitude":30.05,"longitude":31.25},"name":"Africa/Cairo"},"Africa/El_Aaiun":{"countryCodes":["EH"],"coordinates":{"lattitude":27.15,"longitude":-13.2},"name":"Africa/El_Aaiun"},"Europe/Madrid":{"countryCodes":["ES"],"coordinates":{"lattitude":40.4,"longitude":-3.6833333333333336},"name":"Europe/Madrid","comments":"Spain (mainland)"},"Africa/Ceuta":{"countryCodes":["ES"],"coordinates":{"lattitude":35.88333333333333,"longitude":-5.316666666666666},"name":"Africa/Ceuta","comments":"Ceuta, Melilla"},"Atlantic/Canary":{"countryCodes":["ES"],"coordinates":{"lattitude":28.1,"longitude":-15.4},"name":"Atlantic/Canary","comments":"Canary Islands"},"Europe/Helsinki":{"countryCodes":["FI","AX"],"coordinates":{"lattitude":60.166666666666664,"longitude":24.966666666666665},"name":"Europe/Helsinki"},"Pacific/Fiji":{"countryCodes":["FJ"],"coordinates":{"lattitude":-18.133333333333333,"longitude":178.41666666666666},"name":"Pacific/Fiji"},"Atlantic/Stanley":{"countryCodes":["FK"],"coordinates":{"lattitude":-51.7,"longitude":-57.85},"name":"Atlantic/Stanley"},"Pacific/Chuuk":{"countryCodes":["FM"],"coordinates":{"lattitude":7.416666666666667,"longitude":151.78333333333333},"name":"Pacific/Chuuk","comments":"Chuuk/Truk, Yap"},"Pacific/Pohnpei":{"countryCodes":["FM"],"coordinates":{"lattitude":6.966666666666667,"longitude":158.21666666666667},"name":"Pacific/Pohnpei","comments":"Pohnpei/Ponape"},"Pacific/Kosrae":{"countryCodes":["FM"],"coordinates":{"lattitude":5.316666666666666,"longitude":162.98333333333332},"name":"Pacific/Kosrae","comments":"Kosrae"},"Atlantic/Faroe":{"countryCodes":["FO"],"coordinates":{"lattitude":62.016666666666666,"longitude":-6.766666666666667},"name":"Atlantic/Faroe"},"Europe/Paris":{"countryCodes":["FR"],"coordinates":{"lattitude":48.86666666666667,"longitude":2.3333333333333335},"name":"Europe/Paris"},"Europe/London":{"countryCodes":["GB","GG","IM","JE"],"coordinates":{"lattitude":52,"longitude":-0.6333333333333334},"name":"Europe/London"},"Asia/Tbilisi":{"countryCodes":["GE"],"coordinates":{"lattitude":41.71666666666667,"longitude":44.81666666666667},"name":"Asia/Tbilisi"},"America/Cayenne":{"countryCodes":["GF"],"coordinates":{"lattitude":4.933333333333334,"longitude":-52.333333333333336},"name":"America/Cayenne"},"Africa/Accra":{"countryCodes":["GH"],"coordinates":{"lattitude":5.55,"longitude":-0.21666666666666667},"name":"Africa/Accra"},"Europe/Gibraltar":{"countryCodes":["GI"],"coordinates":{"lattitude":36.13333333333333,"longitude":-5.35},"name":"Europe/Gibraltar"},"America/Nuuk":{"countryCodes":["GL"],"coordinates":{"lattitude":64.18333333333334,"longitude":-51.733333333333334},"name":"America/Nuuk","comments":"Greenland (most areas)"},"America/Danmarkshavn":{"countryCodes":["GL"],"coordinates":{"lattitude":76.76666666666667,"longitude":-18.666666666666668},"name":"America/Danmarkshavn","comments":"National Park (east coast)"},"America/Scoresbysund":{"countryCodes":["GL"],"coordinates":{"lattitude":70.48333333333333,"longitude":-21.966666666666665},"name":"America/Scoresbysund","comments":"Scoresbysund/Ittoqqortoormiit"},"America/Thule":{"countryCodes":["GL"],"coordinates":{"lattitude":76.56666666666666,"longitude":-68.78333333333333},"name":"America/Thule","comments":"Thule/Pituffik"},"Europe/Athens":{"countryCodes":["GR"],"coordinates":{"lattitude":37.96666666666667,"longitude":23.716666666666665},"name":"Europe/Athens"},"Atlantic/South_Georgia":{"countryCodes":["GS"],"coordinates":{"lattitude":-54.266666666666666,"longitude":-36.53333333333333},"name":"Atlantic/South_Georgia"},"America/Guatemala":{"countryCodes":["GT"],"coordinates":{"lattitude":14.633333333333333,"longitude":-90.51666666666667},"name":"America/Guatemala"},"Pacific/Guam":{"countryCodes":["GU","MP"],"coordinates":{"lattitude":13.466666666666667,"longitude":144.75},"name":"Pacific/Guam"},"Africa/Bissau":{"countryCodes":["GW"],"coordinates":{"lattitude":11.85,"longitude":-15.583333333333334},"name":"Africa/Bissau"},"America/Guyana":{"countryCodes":["GY"],"coordinates":{"lattitude":6.8,"longitude":-58.166666666666664},"name":"America/Guyana"},"Asia/Hong_Kong":{"countryCodes":["HK"],"coordinates":{"lattitude":22.283333333333335,"longitude":114.15},"name":"Asia/Hong_Kong"},"America/Tegucigalpa":{"countryCodes":["HN"],"coordinates":{"lattitude":14.1,"longitude":-87.21666666666667},"name":"America/Tegucigalpa"},"America/Port-au-Prince":{"countryCodes":["HT"],"coordinates":{"lattitude":18.533333333333335,"longitude":-72.33333333333333},"name":"America/Port-au-Prince"},"Europe/Budapest":{"countryCodes":["HU"],"coordinates":{"lattitude":47.5,"longitude":19.083333333333332},"name":"Europe/Budapest"},"Asia/Jakarta":{"countryCodes":["ID"],"coordinates":{"lattitude":-6.166666666666667,"longitude":106.8},"name":"Asia/Jakarta","comments":"Java, Sumatra"},"Asia/Pontianak":{"countryCodes":["ID"],"coordinates":{"lattitude":-0.03333333333333333,"longitude":109.33333333333333},"name":"Asia/Pontianak","comments":"Borneo (west, central)"},"Asia/Makassar":{"countryCodes":["ID"],"coordinates":{"lattitude":-5.116666666666666,"longitude":119.4},"name":"Asia/Makassar","comments":"Borneo (east, south); Sulawesi/Celebes, Bali, Nusa Tengarra; Timor (west)"},"Asia/Jayapura":{"countryCodes":["ID"],"coordinates":{"lattitude":-2.533333333333333,"longitude":140.7},"name":"Asia/Jayapura","comments":"New Guinea (West Papua / Irian Jaya); Malukus/Moluccas"},"Europe/Dublin":{"countryCodes":["IE"],"coordinates":{"lattitude":53.333333333333336,"longitude":-6.25},"name":"Europe/Dublin"},"Asia/Jerusalem":{"countryCodes":["IL"],"coordinates":{"lattitude":32.6,"longitude":35.65},"name":"Asia/Jerusalem"},"Asia/Kolkata":{"countryCodes":["IN"],"coordinates":{"lattitude":22.533333333333335,"longitude":88.36666666666666},"name":"Asia/Kolkata"},"Indian/Chagos":{"countryCodes":["IO"],"coordinates":{"lattitude":-7.333333333333333,"longitude":72.41666666666667},"name":"Indian/Chagos"},"Asia/Baghdad":{"countryCodes":["IQ"],"coordinates":{"lattitude":33.35,"longitude":44.416666666666664},"name":"Asia/Baghdad"},"Asia/Tehran":{"countryCodes":["IR"],"coordinates":{"lattitude":35.666666666666664,"longitude":51.43333333333333},"name":"Asia/Tehran"},"Atlantic/Reykjavik":{"countryCodes":["IS"],"coordinates":{"lattitude":64.15,"longitude":-21.85},"name":"Atlantic/Reykjavik"},"Europe/Rome":{"countryCodes":["IT","SM","VA"],"coordinates":{"lattitude":41.9,"longitude":12.483333333333333},"name":"Europe/Rome"},"America/Jamaica":{"countryCodes":["JM"],"coordinates":{"lattitude":18.049999999999997,"longitude":-77.38333333333333},"name":"America/Jamaica"},"Asia/Amman":{"countryCodes":["JO"],"coordinates":{"lattitude":31.95,"longitude":35.93333333333333},"name":"Asia/Amman"},"Asia/Tokyo":{"countryCodes":["JP"],"coordinates":{"lattitude":35.916666666666664,"longitude":140.41666666666666},"name":"Asia/Tokyo"},"Africa/Nairobi":{"countryCodes":["KE","DJ","ER","ET","KM","MG","SO","TZ","UG","YT"],"coordinates":{"lattitude":-1.2833333333333332,"longitude":36.81666666666667},"name":"Africa/Nairobi"},"Asia/Bishkek":{"countryCodes":["KG"],"coordinates":{"lattitude":42.9,"longitude":74.6},"name":"Asia/Bishkek"},"Pacific/Tarawa":{"countryCodes":["KI"],"coordinates":{"lattitude":1.4166666666666667,"longitude":173},"name":"Pacific/Tarawa","comments":"Gilbert Islands"},"Pacific/Enderbury":{"countryCodes":["KI"],"coordinates":{"lattitude":-3.1333333333333333,"longitude":-171.08333333333334},"name":"Pacific/Enderbury","comments":"Phoenix Islands"},"Pacific/Kiritimati":{"countryCodes":["KI"],"coordinates":{"lattitude":1.8666666666666667,"longitude":-157.33333333333334},"name":"Pacific/Kiritimati","comments":"Line Islands"},"Asia/Pyongyang":{"countryCodes":["KP"],"coordinates":{"lattitude":39.016666666666666,"longitude":125.75},"name":"Asia/Pyongyang"},"Asia/Seoul":{"countryCodes":["KR"],"coordinates":{"lattitude":37.55,"longitude":126.96666666666667},"name":"Asia/Seoul"},"Asia/Almaty":{"countryCodes":["KZ"],"coordinates":{"lattitude":43.25,"longitude":76.95},"name":"Asia/Almaty","comments":"Kazakhstan (most areas)"},"Asia/Qyzylorda":{"countryCodes":["KZ"],"coordinates":{"lattitude":44.8,"longitude":65.46666666666667},"name":"Asia/Qyzylorda","comments":"Qyzylorda/Kyzylorda/Kzyl-Orda"},"Asia/Qostanay":{"countryCodes":["KZ"],"coordinates":{"lattitude":53.2,"longitude":63.61666666666667},"name":"Asia/Qostanay","comments":"Qostanay/Kostanay/Kustanay"},"Asia/Aqtobe":{"countryCodes":["KZ"],"coordinates":{"lattitude":50.28333333333333,"longitude":57.166666666666664},"name":"Asia/Aqtobe","comments":"Aqtöbe/Aktobe"},"Asia/Aqtau":{"countryCodes":["KZ"],"coordinates":{"lattitude":44.516666666666666,"longitude":50.266666666666666},"name":"Asia/Aqtau","comments":"Mangghystaū/Mankistau"},"Asia/Atyrau":{"countryCodes":["KZ"],"coordinates":{"lattitude":47.11666666666667,"longitude":51.93333333333333},"name":"Asia/Atyrau","comments":"Atyraū/Atirau/Gur'yev"},"Asia/Oral":{"countryCodes":["KZ"],"coordinates":{"lattitude":51.21666666666667,"longitude":51.35},"name":"Asia/Oral","comments":"West Kazakhstan"},"Asia/Beirut":{"countryCodes":["LB"],"coordinates":{"lattitude":33.88333333333333,"longitude":35.5},"name":"Asia/Beirut"},"Asia/Colombo":{"countryCodes":["LK"],"coordinates":{"lattitude":6.933333333333334,"longitude":79.85},"name":"Asia/Colombo"},"Africa/Monrovia":{"countryCodes":["LR"],"coordinates":{"lattitude":6.3,"longitude":-10.783333333333333},"name":"Africa/Monrovia"},"Europe/Vilnius":{"countryCodes":["LT"],"coordinates":{"lattitude":54.68333333333333,"longitude":25.316666666666666},"name":"Europe/Vilnius"},"Europe/Luxembourg":{"countryCodes":["LU"],"coordinates":{"lattitude":49.6,"longitude":6.15},"name":"Europe/Luxembourg"},"Europe/Riga":{"countryCodes":["LV"],"coordinates":{"lattitude":56.95,"longitude":24.1},"name":"Europe/Riga"},"Africa/Tripoli":{"countryCodes":["LY"],"coordinates":{"lattitude":32.9,"longitude":13.183333333333334},"name":"Africa/Tripoli"},"Africa/Casablanca":{"countryCodes":["MA"],"coordinates":{"lattitude":33.65,"longitude":-7.583333333333333},"name":"Africa/Casablanca"},"Europe/Monaco":{"countryCodes":["MC"],"coordinates":{"lattitude":43.7,"longitude":7.383333333333334},"name":"Europe/Monaco"},"Europe/Chisinau":{"countryCodes":["MD"],"coordinates":{"lattitude":47,"longitude":28.833333333333332},"name":"Europe/Chisinau"},"Pacific/Majuro":{"countryCodes":["MH"],"coordinates":{"lattitude":7.15,"longitude":171.2},"name":"Pacific/Majuro","comments":"Marshall Islands (most areas)"},"Pacific/Kwajalein":{"countryCodes":["MH"],"coordinates":{"lattitude":9.083333333333334,"longitude":167.33333333333334},"name":"Pacific/Kwajalein","comments":"Kwajalein"},"Asia/Yangon":{"countryCodes":["MM"],"coordinates":{"lattitude":16.783333333333335,"longitude":96.16666666666667},"name":"Asia/Yangon"},"Asia/Ulaanbaatar":{"countryCodes":["MN"],"coordinates":{"lattitude":47.916666666666664,"longitude":106.88333333333334},"name":"Asia/Ulaanbaatar","comments":"Mongolia (most areas)"},"Asia/Hovd":{"countryCodes":["MN"],"coordinates":{"lattitude":48.016666666666666,"longitude":91.65},"name":"Asia/Hovd","comments":"Bayan-Ölgii, Govi-Altai, Hovd, Uvs, Zavkhan"},"Asia/Choibalsan":{"countryCodes":["MN"],"coordinates":{"lattitude":48.06666666666667,"longitude":114.5},"name":"Asia/Choibalsan","comments":"Dornod, Sükhbaatar"},"Asia/Macau":{"countryCodes":["MO"],"coordinates":{"lattitude":23.016666666666666,"longitude":114.03333333333333},"name":"Asia/Macau"},"America/Martinique":{"countryCodes":["MQ"],"coordinates":{"lattitude":14.6,"longitude":-61.083333333333336},"name":"America/Martinique"},"Europe/Malta":{"countryCodes":["MT"],"coordinates":{"lattitude":35.9,"longitude":14.516666666666667},"name":"Europe/Malta"},"Indian/Mauritius":{"countryCodes":["MU"],"coordinates":{"lattitude":-20.166666666666668,"longitude":57.5},"name":"Indian/Mauritius"},"Indian/Maldives":{"countryCodes":["MV"],"coordinates":{"lattitude":4.166666666666667,"longitude":73.5},"name":"Indian/Maldives"},"America/Mexico_City":{"countryCodes":["MX"],"coordinates":{"lattitude":19.4,"longitude":-99.15},"name":"America/Mexico_City","comments":"Central Time"},"America/Cancun":{"countryCodes":["MX"],"coordinates":{"lattitude":21.083333333333332,"longitude":-86.76666666666667},"name":"America/Cancun","comments":"Eastern Standard Time - Quintana Roo"},"America/Merida":{"countryCodes":["MX"],"coordinates":{"lattitude":20.966666666666665,"longitude":-89.61666666666666},"name":"America/Merida","comments":"Central Time - Campeche, Yucatán"},"America/Monterrey":{"countryCodes":["MX"],"coordinates":{"lattitude":25.666666666666668,"longitude":-100.31666666666666},"name":"America/Monterrey","comments":"Central Time - Durango; Coahuila, Nuevo León, Tamaulipas (most areas)"},"America/Matamoros":{"countryCodes":["MX"],"coordinates":{"lattitude":25.833333333333332,"longitude":-97.5},"name":"America/Matamoros","comments":"Central Time US - Coahuila, Nuevo León, Tamaulipas (US border)"},"America/Mazatlan":{"countryCodes":["MX"],"coordinates":{"lattitude":23.216666666666665,"longitude":-106.41666666666667},"name":"America/Mazatlan","comments":"Mountain Time - Baja California Sur, Nayarit, Sinaloa"},"America/Chihuahua":{"countryCodes":["MX"],"coordinates":{"lattitude":28.633333333333333,"longitude":-106.08333333333333},"name":"America/Chihuahua","comments":"Mountain Time - Chihuahua (most areas)"},"America/Ojinaga":{"countryCodes":["MX"],"coordinates":{"lattitude":29.566666666666666,"longitude":-104.41666666666667},"name":"America/Ojinaga","comments":"Mountain Time US - Chihuahua (US border)"},"America/Hermosillo":{"countryCodes":["MX"],"coordinates":{"lattitude":29.066666666666666,"longitude":-110.96666666666667},"name":"America/Hermosillo","comments":"Mountain Standard Time - Sonora"},"America/Tijuana":{"countryCodes":["MX"],"coordinates":{"lattitude":32.53333333333333,"longitude":-117.01666666666667},"name":"America/Tijuana","comments":"Pacific Time US - Baja California"},"America/Bahia_Banderas":{"countryCodes":["MX"],"coordinates":{"lattitude":20.8,"longitude":-105.25},"name":"America/Bahia_Banderas","comments":"Central Time - Bahía de Banderas"},"Asia/Kuala_Lumpur":{"countryCodes":["MY"],"coordinates":{"lattitude":3.1666666666666665,"longitude":101.7},"name":"Asia/Kuala_Lumpur","comments":"Malaysia (peninsula)"},"Asia/Kuching":{"countryCodes":["MY"],"coordinates":{"lattitude":1.55,"longitude":110.33333333333333},"name":"Asia/Kuching","comments":"Sabah, Sarawak"},"Africa/Maputo":{"countryCodes":["MZ","BI","BW","CD","MW","RW","ZM","ZW"],"coordinates":{"lattitude":-25.966666666666665,"longitude":32.583333333333336},"name":"Africa/Maputo","comments":"Central Africa Time"},"Africa/Windhoek":{"countryCodes":["NA"],"coordinates":{"lattitude":-22.566666666666666,"longitude":17.1},"name":"Africa/Windhoek"},"Pacific/Noumea":{"countryCodes":["NC"],"coordinates":{"lattitude":-22.266666666666666,"longitude":166.45},"name":"Pacific/Noumea"},"Pacific/Norfolk":{"countryCodes":["NF"],"coordinates":{"lattitude":-29.05,"longitude":167.96666666666667},"name":"Pacific/Norfolk"},"Africa/Lagos":{"countryCodes":["NG","AO","BJ","CD","CF","CG","CM","GA","GQ","NE"],"coordinates":{"lattitude":6.45,"longitude":3.4},"name":"Africa/Lagos","comments":"West Africa Time"},"America/Managua":{"countryCodes":["NI"],"coordinates":{"lattitude":12.15,"longitude":-86.28333333333333},"name":"America/Managua"},"Europe/Amsterdam":{"countryCodes":["NL"],"coordinates":{"lattitude":52.36666666666667,"longitude":4.9},"name":"Europe/Amsterdam"},"Europe/Oslo":{"countryCodes":["NO","SJ"],"coordinates":{"lattitude":59.916666666666664,"longitude":10.75},"name":"Europe/Oslo"},"Asia/Kathmandu":{"countryCodes":["NP"],"coordinates":{"lattitude":27.716666666666665,"longitude":85.31666666666666},"name":"Asia/Kathmandu"},"Pacific/Nauru":{"countryCodes":["NR"],"coordinates":{"lattitude":-0.5166666666666667,"longitude":166.91666666666666},"name":"Pacific/Nauru"},"Pacific/Niue":{"countryCodes":["NU"],"coordinates":{"lattitude":-19.016666666666666,"longitude":-169.91666666666666},"name":"Pacific/Niue"},"Pacific/Auckland":{"countryCodes":["NZ","AQ"],"coordinates":{"lattitude":-36.86666666666667,"longitude":174.76666666666668},"name":"Pacific/Auckland","comments":"New Zealand time"},"Pacific/Chatham":{"countryCodes":["NZ"],"coordinates":{"lattitude":-43.95,"longitude":-176.55},"name":"Pacific/Chatham","comments":"Chatham Islands"},"America/Panama":{"countryCodes":["PA","KY"],"coordinates":{"lattitude":8.966666666666667,"longitude":-79.53333333333333},"name":"America/Panama"},"America/Lima":{"countryCodes":["PE"],"coordinates":{"lattitude":-12.05,"longitude":-77.05},"name":"America/Lima"},"Pacific/Tahiti":{"countryCodes":["PF"],"coordinates":{"lattitude":-17.533333333333335,"longitude":-149.56666666666666},"name":"Pacific/Tahiti","comments":"Society Islands"},"Pacific/Marquesas":{"countryCodes":["PF"],"coordinates":{"lattitude":-9,"longitude":-139.5},"name":"Pacific/Marquesas","comments":"Marquesas Islands"},"Pacific/Gambier":{"countryCodes":["PF"],"coordinates":{"lattitude":-23.133333333333333,"longitude":-134.95},"name":"Pacific/Gambier","comments":"Gambier Islands"},"Pacific/Port_Moresby":{"countryCodes":["PG"],"coordinates":{"lattitude":-9.5,"longitude":147.16666666666666},"name":"Pacific/Port_Moresby","comments":"Papua New Guinea (most areas)"},"Pacific/Bougainville":{"countryCodes":["PG"],"coordinates":{"lattitude":-6.216666666666667,"longitude":155.56666666666666},"name":"Pacific/Bougainville","comments":"Bougainville"},"Asia/Manila":{"countryCodes":["PH"],"coordinates":{"lattitude":14.583333333333334,"longitude":121},"name":"Asia/Manila"},"Asia/Karachi":{"countryCodes":["PK"],"coordinates":{"lattitude":24.866666666666667,"longitude":67.05},"name":"Asia/Karachi"},"Europe/Warsaw":{"countryCodes":["PL"],"coordinates":{"lattitude":52.25,"longitude":21},"name":"Europe/Warsaw"},"America/Miquelon":{"countryCodes":["PM"],"coordinates":{"lattitude":47.05,"longitude":-56.333333333333336},"name":"America/Miquelon"},"Pacific/Pitcairn":{"countryCodes":["PN"],"coordinates":{"lattitude":-25.066666666666666,"longitude":-130.08333333333334},"name":"Pacific/Pitcairn"},"America/Puerto_Rico":{"countryCodes":["PR"],"coordinates":{"lattitude":18.566666666666666,"longitude":-66.46666666666665},"name":"America/Puerto_Rico"},"Asia/Gaza":{"countryCodes":["PS"],"coordinates":{"lattitude":31.5,"longitude":34.46666666666667},"name":"Asia/Gaza","comments":"Gaza Strip"},"Asia/Hebron":{"countryCodes":["PS"],"coordinates":{"lattitude":31.533333333333335,"longitude":35.78333333333334},"name":"Asia/Hebron","comments":"West Bank"},"Europe/Lisbon":{"countryCodes":["PT"],"coordinates":{"lattitude":38.71666666666667,"longitude":-9.133333333333333},"name":"Europe/Lisbon","comments":"Portugal (mainland)"},"Atlantic/Madeira":{"countryCodes":["PT"],"coordinates":{"lattitude":32.63333333333333,"longitude":-16.9},"name":"Atlantic/Madeira","comments":"Madeira Islands"},"Atlantic/Azores":{"countryCodes":["PT"],"coordinates":{"lattitude":37.733333333333334,"longitude":-25.666666666666668},"name":"Atlantic/Azores","comments":"Azores"},"Pacific/Palau":{"countryCodes":["PW"],"coordinates":{"lattitude":7.333333333333333,"longitude":134.48333333333332},"name":"Pacific/Palau"},"America/Asuncion":{"countryCodes":["PY"],"coordinates":{"lattitude":-25.266666666666666,"longitude":-57.666666666666664},"name":"America/Asuncion"},"Asia/Qatar":{"countryCodes":["QA","BH"],"coordinates":{"lattitude":25.283333333333335,"longitude":51.53333333333333},"name":"Asia/Qatar"},"Indian/Reunion":{"countryCodes":["RE","TF"],"coordinates":{"lattitude":-20.866666666666667,"longitude":55.46666666666667},"name":"Indian/Reunion","comments":"Réunion, Crozet, Scattered Islands"},"Europe/Bucharest":{"countryCodes":["RO"],"coordinates":{"lattitude":44.43333333333333,"longitude":26.1},"name":"Europe/Bucharest"},"Europe/Belgrade":{"countryCodes":["RS","BA","HR","ME","MK","SI"],"coordinates":{"lattitude":44.833333333333336,"longitude":20.5},"name":"Europe/Belgrade"},"Europe/Kaliningrad":{"countryCodes":["RU"],"coordinates":{"lattitude":54.71666666666667,"longitude":20.5},"name":"Europe/Kaliningrad","comments":"MSK-01 - Kaliningrad"},"Europe/Moscow":{"countryCodes":["RU"],"coordinates":{"lattitude":56.1,"longitude":37.68333333333334},"name":"Europe/Moscow","comments":"MSK+00 - Moscow area"},"Europe/Simferopol":{"countryCodes":["RU","UA"],"coordinates":{"lattitude":44.95,"longitude":34.1},"name":"Europe/Simferopol","comments":"Crimea"},"Europe/Kirov":{"countryCodes":["RU"],"coordinates":{"lattitude":58.6,"longitude":49.65},"name":"Europe/Kirov","comments":"MSK+00 - Kirov"},"Europe/Astrakhan":{"countryCodes":["RU"],"coordinates":{"lattitude":46.35,"longitude":48.05},"name":"Europe/Astrakhan","comments":"MSK+01 - Astrakhan"},"Europe/Volgograd":{"countryCodes":["RU"],"coordinates":{"lattitude":48.733333333333334,"longitude":44.416666666666664},"name":"Europe/Volgograd","comments":"MSK+01 - Volgograd"},"Europe/Saratov":{"countryCodes":["RU"],"coordinates":{"lattitude":51.56666666666667,"longitude":46.03333333333333},"name":"Europe/Saratov","comments":"MSK+01 - Saratov"},"Europe/Ulyanovsk":{"countryCodes":["RU"],"coordinates":{"lattitude":54.333333333333336,"longitude":48.4},"name":"Europe/Ulyanovsk","comments":"MSK+01 - Ulyanovsk"},"Europe/Samara":{"countryCodes":["RU"],"coordinates":{"lattitude":53.2,"longitude":50.15},"name":"Europe/Samara","comments":"MSK+01 - Samara, Udmurtia"},"Asia/Yekaterinburg":{"countryCodes":["RU"],"coordinates":{"lattitude":56.85,"longitude":60.6},"name":"Asia/Yekaterinburg","comments":"MSK+02 - Urals"},"Asia/Omsk":{"countryCodes":["RU"],"coordinates":{"lattitude":55,"longitude":73.4},"name":"Asia/Omsk","comments":"MSK+03 - Omsk"},"Asia/Novosibirsk":{"countryCodes":["RU"],"coordinates":{"lattitude":55.03333333333333,"longitude":82.91666666666667},"name":"Asia/Novosibirsk","comments":"MSK+04 - Novosibirsk"},"Asia/Barnaul":{"countryCodes":["RU"],"coordinates":{"lattitude":53.36666666666667,"longitude":83.75},"name":"Asia/Barnaul","comments":"MSK+04 - Altai"},"Asia/Tomsk":{"countryCodes":["RU"],"coordinates":{"lattitude":56.5,"longitude":84.96666666666667},"name":"Asia/Tomsk","comments":"MSK+04 - Tomsk"},"Asia/Novokuznetsk":{"countryCodes":["RU"],"coordinates":{"lattitude":53.75,"longitude":87.11666666666666},"name":"Asia/Novokuznetsk","comments":"MSK+04 - Kemerovo"},"Asia/Krasnoyarsk":{"countryCodes":["RU"],"coordinates":{"lattitude":56.016666666666666,"longitude":92.83333333333333},"name":"Asia/Krasnoyarsk","comments":"MSK+04 - Krasnoyarsk area"},"Asia/Irkutsk":{"countryCodes":["RU"],"coordinates":{"lattitude":52.266666666666666,"longitude":104.33333333333333},"name":"Asia/Irkutsk","comments":"MSK+05 - Irkutsk, Buryatia"},"Asia/Chita":{"countryCodes":["RU"],"coordinates":{"lattitude":52.05,"longitude":113.46666666666667},"name":"Asia/Chita","comments":"MSK+06 - Zabaykalsky"},"Asia/Yakutsk":{"countryCodes":["RU"],"coordinates":{"lattitude":62,"longitude":129.66666666666666},"name":"Asia/Yakutsk","comments":"MSK+06 - Lena River"},"Asia/Khandyga":{"countryCodes":["RU"],"coordinates":{"lattitude":63.03333333333333,"longitude":135.78333333333333},"name":"Asia/Khandyga","comments":"MSK+06 - Tomponsky, Ust-Maysky"},"Asia/Vladivostok":{"countryCodes":["RU"],"coordinates":{"lattitude":43.166666666666664,"longitude":131.93333333333334},"name":"Asia/Vladivostok","comments":"MSK+07 - Amur River"},"Asia/Ust-Nera":{"countryCodes":["RU"],"coordinates":{"lattitude":65.16666666666666,"longitude":143.81666666666666},"name":"Asia/Ust-Nera","comments":"MSK+07 - Oymyakonsky"},"Asia/Magadan":{"countryCodes":["RU"],"coordinates":{"lattitude":59.56666666666667,"longitude":150.8},"name":"Asia/Magadan","comments":"MSK+08 - Magadan"},"Asia/Sakhalin":{"countryCodes":["RU"],"coordinates":{"lattitude":46.96666666666667,"longitude":142.7},"name":"Asia/Sakhalin","comments":"MSK+08 - Sakhalin Island"},"Asia/Srednekolymsk":{"countryCodes":["RU"],"coordinates":{"lattitude":67.46666666666667,"longitude":153.71666666666667},"name":"Asia/Srednekolymsk","comments":"MSK+08 - Sakha (E); North Kuril Is"},"Asia/Kamchatka":{"countryCodes":["RU"],"coordinates":{"lattitude":53.016666666666666,"longitude":158.65},"name":"Asia/Kamchatka","comments":"MSK+09 - Kamchatka"},"Asia/Anadyr":{"countryCodes":["RU"],"coordinates":{"lattitude":64.75,"longitude":177.48333333333332},"name":"Asia/Anadyr","comments":"MSK+09 - Bering Sea"},"Asia/Riyadh":{"countryCodes":["SA","KW","YE"],"coordinates":{"lattitude":24.633333333333333,"longitude":46.71666666666667},"name":"Asia/Riyadh"},"Pacific/Guadalcanal":{"countryCodes":["SB"],"coordinates":{"lattitude":-9.533333333333333,"longitude":160.2},"name":"Pacific/Guadalcanal"},"Indian/Mahe":{"countryCodes":["SC"],"coordinates":{"lattitude":-4.666666666666667,"longitude":55.46666666666667},"name":"Indian/Mahe"},"Africa/Khartoum":{"countryCodes":["SD"],"coordinates":{"lattitude":15.6,"longitude":32.53333333333333},"name":"Africa/Khartoum"},"Europe/Stockholm":{"countryCodes":["SE"],"coordinates":{"lattitude":59.333333333333336,"longitude":18.05},"name":"Europe/Stockholm"},"Asia/Singapore":{"countryCodes":["SG"],"coordinates":{"lattitude":1.2833333333333332,"longitude":103.85},"name":"Asia/Singapore"},"America/Paramaribo":{"countryCodes":["SR"],"coordinates":{"lattitude":5.833333333333333,"longitude":-55.166666666666664},"name":"America/Paramaribo"},"Africa/Juba":{"countryCodes":["SS"],"coordinates":{"lattitude":4.85,"longitude":31.616666666666667},"name":"Africa/Juba"},"Africa/Sao_Tome":{"countryCodes":["ST"],"coordinates":{"lattitude":0.3333333333333333,"longitude":6.733333333333333},"name":"Africa/Sao_Tome"},"America/El_Salvador":{"countryCodes":["SV"],"coordinates":{"lattitude":13.7,"longitude":-89.2},"name":"America/El_Salvador"},"Asia/Damascus":{"countryCodes":["SY"],"coordinates":{"lattitude":33.5,"longitude":36.3},"name":"Asia/Damascus"},"America/Grand_Turk":{"countryCodes":["TC"],"coordinates":{"lattitude":21.466666666666665,"longitude":-71.13333333333334},"name":"America/Grand_Turk"},"Africa/Ndjamena":{"countryCodes":["TD"],"coordinates":{"lattitude":12.116666666666667,"longitude":15.05},"name":"Africa/Ndjamena"},"Indian/Kerguelen":{"countryCodes":["TF"],"coordinates":{"lattitude":-49.516666666666666,"longitude":70.26666666666667},"name":"Indian/Kerguelen","comments":"Kerguelen, St Paul Island, Amsterdam Island"},"Asia/Bangkok":{"countryCodes":["TH","KH","LA","VN"],"coordinates":{"lattitude":13.75,"longitude":100.51666666666667},"name":"Asia/Bangkok","comments":"Indochina (most areas)"},"Asia/Dushanbe":{"countryCodes":["TJ"],"coordinates":{"lattitude":38.583333333333336,"longitude":68.8},"name":"Asia/Dushanbe"},"Pacific/Fakaofo":{"countryCodes":["TK"],"coordinates":{"lattitude":-9.366666666666667,"longitude":-171.23333333333332},"name":"Pacific/Fakaofo"},"Asia/Dili":{"countryCodes":["TL"],"coordinates":{"lattitude":-8.55,"longitude":125.58333333333333},"name":"Asia/Dili"},"Asia/Ashgabat":{"countryCodes":["TM"],"coordinates":{"lattitude":37.95,"longitude":58.38333333333333},"name":"Asia/Ashgabat"},"Africa/Tunis":{"countryCodes":["TN"],"coordinates":{"lattitude":36.8,"longitude":10.183333333333334},"name":"Africa/Tunis"},"Pacific/Tongatapu":{"countryCodes":["TO"],"coordinates":{"lattitude":-21.166666666666668,"longitude":-175.16666666666666},"name":"Pacific/Tongatapu"},"Europe/Istanbul":{"countryCodes":["TR"],"coordinates":{"lattitude":41.016666666666666,"longitude":28.966666666666665},"name":"Europe/Istanbul"},"America/Port_of_Spain":{"countryCodes":["TT","AG","AI","BL","DM","GD","GP","KN","LC","MF","MS","VC","VG","VI"],"coordinates":{"lattitude":10.65,"longitude":-61.516666666666666},"name":"America/Port_of_Spain"},"Pacific/Funafuti":{"countryCodes":["TV"],"coordinates":{"lattitude":-8.516666666666667,"longitude":179.21666666666667},"name":"Pacific/Funafuti"},"Asia/Taipei":{"countryCodes":["TW"],"coordinates":{"lattitude":25.05,"longitude":121.5},"name":"Asia/Taipei"},"Europe/Kiev":{"countryCodes":["UA"],"coordinates":{"lattitude":50.43333333333333,"longitude":30.516666666666666},"name":"Europe/Kiev","comments":"Ukraine (most areas)"},"Europe/Uzhgorod":{"countryCodes":["UA"],"coordinates":{"lattitude":48.61666666666667,"longitude":22.3},"name":"Europe/Uzhgorod","comments":"Transcarpathia"},"Europe/Zaporozhye":{"countryCodes":["UA"],"coordinates":{"lattitude":47.833333333333336,"longitude":35.166666666666664},"name":"Europe/Zaporozhye","comments":"Zaporozhye and east Lugansk"},"Pacific/Wake":{"countryCodes":["UM"],"coordinates":{"lattitude":19.283333333333335,"longitude":166.61666666666667},"name":"Pacific/Wake","comments":"Wake Island"},"America/New_York":{"countryCodes":["US"],"coordinates":{"lattitude":41.550000000000004,"longitude":-74.38333333333334},"name":"America/New_York","comments":"Eastern (most areas)"},"America/Detroit":{"countryCodes":["US"],"coordinates":{"lattitude":43.2,"longitude":-83.78333333333333},"name":"America/Detroit","comments":"Eastern - MI (most areas)"},"America/Kentucky/Louisville":{"countryCodes":["US"],"coordinates":{"lattitude":38.5,"longitude":-86.31666666666666},"name":"America/Kentucky/Louisville","comments":"Eastern - KY (Louisville area)"},"America/Kentucky/Monticello":{"countryCodes":["US"],"coordinates":{"lattitude":37.6,"longitude":-85.78333333333333},"name":"America/Kentucky/Monticello","comments":"Eastern - KY (Wayne)"},"America/Indiana/Indianapolis":{"countryCodes":["US"],"coordinates":{"lattitude":39.86666666666667,"longitude":-86.63333333333334},"name":"America/Indiana/Indianapolis","comments":"Eastern - IN (most areas)"},"America/Indiana/Vincennes":{"countryCodes":["US"],"coordinates":{"lattitude":39.3,"longitude":-88.23333333333333},"name":"America/Indiana/Vincennes","comments":"Eastern - IN (Da, Du, K, Mn)"},"America/Indiana/Winamac":{"countryCodes":["US"],"coordinates":{"lattitude":41.13333333333333,"longitude":-86.78333333333333},"name":"America/Indiana/Winamac","comments":"Eastern - IN (Pulaski)"},"America/Indiana/Marengo":{"countryCodes":["US"],"coordinates":{"lattitude":38.9,"longitude":-87.01666666666667},"name":"America/Indiana/Marengo","comments":"Eastern - IN (Crawford)"},"America/Indiana/Petersburg":{"countryCodes":["US"],"coordinates":{"lattitude":39,"longitude":-87.98333333333333},"name":"America/Indiana/Petersburg","comments":"Eastern - IN (Pike)"},"America/Indiana/Vevay":{"countryCodes":["US"],"coordinates":{"lattitude":39.6,"longitude":-85.1},"name":"America/Indiana/Vevay","comments":"Eastern - IN (Switzerland)"},"America/Chicago":{"countryCodes":["US"],"coordinates":{"lattitude":41.85,"longitude":-87.65},"name":"America/Chicago","comments":"Central (most areas)"},"America/Indiana/Tell_City":{"countryCodes":["US"],"coordinates":{"lattitude":38.13333333333333,"longitude":-87.43333333333334},"name":"America/Indiana/Tell_City","comments":"Central - IN (Perry)"},"America/Indiana/Knox":{"countryCodes":["US"],"coordinates":{"lattitude":42.03333333333333,"longitude":-87.11666666666666},"name":"America/Indiana/Knox","comments":"Central - IN (Starke)"},"America/Menominee":{"countryCodes":["US"],"coordinates":{"lattitude":45.56666666666667,"longitude":-88.44999999999999},"name":"America/Menominee","comments":"Central - MI (Wisconsin border)"},"America/North_Dakota/Center":{"countryCodes":["US"],"coordinates":{"lattitude":48.083333333333336,"longitude":-102.23333333333333},"name":"America/North_Dakota/Center","comments":"Central - ND (Oliver)"},"America/North_Dakota/New_Salem":{"countryCodes":["US"],"coordinates":{"lattitude":47.53333333333334,"longitude":-102.05000000000001},"name":"America/North_Dakota/New_Salem","comments":"Central - ND (Morton rural)"},"America/North_Dakota/Beulah":{"countryCodes":["US"],"coordinates":{"lattitude":48.1,"longitude":-102.43333333333334},"name":"America/North_Dakota/Beulah","comments":"Central - ND (Mercer)"},"America/Denver":{"countryCodes":["US"],"coordinates":{"lattitude":40.083333333333336,"longitude":-105.03333333333333},"name":"America/Denver","comments":"Mountain (most areas)"},"America/Boise":{"countryCodes":["US"],"coordinates":{"lattitude":44.41666666666667,"longitude":-116.35000000000001},"name":"America/Boise","comments":"Mountain - ID (south); OR (east)"},"America/Phoenix":{"countryCodes":["US"],"coordinates":{"lattitude":34.33333333333333,"longitude":-112.46666666666667},"name":"America/Phoenix","comments":"MST - Arizona (except Navajo)"},"America/Los_Angeles":{"countryCodes":["US"],"coordinates":{"lattitude":34.18333333333333,"longitude":-118.8},"name":"America/Los_Angeles","comments":"Pacific"},"America/Anchorage":{"countryCodes":["US"],"coordinates":{"lattitude":61.300000000000004,"longitude":-149.91666666666669},"name":"America/Anchorage","comments":"Alaska (most areas)"},"America/Juneau":{"countryCodes":["US"],"coordinates":{"lattitude":58.416666666666664,"longitude":-134.6},"name":"America/Juneau","comments":"Alaska - Juneau area"},"America/Sitka":{"countryCodes":["US"],"coordinates":{"lattitude":57.75,"longitude":-135.41666666666669},"name":"America/Sitka","comments":"Alaska - Sitka area"},"America/Metlakatla":{"countryCodes":["US"],"coordinates":{"lattitude":55.733333333333334,"longitude":-132.15},"name":"America/Metlakatla","comments":"Alaska - Annette Island"},"America/Yakutat":{"countryCodes":["US"],"coordinates":{"lattitude":60.35,"longitude":-140.35},"name":"America/Yakutat","comments":"Alaska - Yakutat"},"America/Nome":{"countryCodes":["US"],"coordinates":{"lattitude":64.56666666666666,"longitude":-165.78333333333333},"name":"America/Nome","comments":"Alaska (west)"},"America/Adak":{"countryCodes":["US"],"coordinates":{"lattitude":52.666666666666664,"longitude":-177.13333333333333},"name":"America/Adak","comments":"Aleutian Islands"},"Pacific/Honolulu":{"countryCodes":["US","UM"],"coordinates":{"lattitude":21.71666666666667,"longitude":-158.35},"name":"Pacific/Honolulu","comments":"Hawaii"},"America/Montevideo":{"countryCodes":["UY"],"coordinates":{"lattitude":-35.449999999999996,"longitude":-56.95},"name":"America/Montevideo"},"Asia/Samarkand":{"countryCodes":["UZ"],"coordinates":{"lattitude":39.666666666666664,"longitude":66.8},"name":"Asia/Samarkand","comments":"Uzbekistan (west)"},"Asia/Tashkent":{"countryCodes":["UZ"],"coordinates":{"lattitude":41.333333333333336,"longitude":69.3},"name":"Asia/Tashkent","comments":"Uzbekistan (east)"},"America/Caracas":{"countryCodes":["VE"],"coordinates":{"lattitude":10.5,"longitude":-66.93333333333334},"name":"America/Caracas"},"Asia/Ho_Chi_Minh":{"countryCodes":["VN"],"coordinates":{"lattitude":10.75,"longitude":106.66666666666667},"name":"Asia/Ho_Chi_Minh","comments":"Vietnam (south)"},"Pacific/Efate":{"countryCodes":["VU"],"coordinates":{"lattitude":-17.666666666666668,"longitude":168.41666666666666},"name":"Pacific/Efate"},"Pacific/Wallis":{"countryCodes":["WF"],"coordinates":{"lattitude":-13.3,"longitude":-176.16666666666666},"name":"Pacific/Wallis"},"Pacific/Apia":{"countryCodes":["WS"],"coordinates":{"lattitude":-13.833333333333334,"longitude":-171.73333333333332},"name":"Pacific/Apia"},"Africa/Johannesburg":{"countryCodes":["ZA","LS","SZ"],"coordinates":{"lattitude":-26.25,"longitude":28},"name":"Africa/Johannesburg"}}